,City ID,City,Country,Lat,Lon,Cloudiness,Humidity,Max Temp,Wind Speed,Date
0,2155415,New Norfolk,AU,-42.7826,147.0587,99,78,50.38,1.55,2021-04-24 09:03:51
1,3366880,Hermanus,ZA,-34.4187,19.2345,100,58,74.37,0.89,2021-04-24 09:04:10
2,2068110,Kununurra,AU,-15.7667,128.7333,7,52,67.37,2.06,2021-04-24 09:04:10
3,5850554,Makakilo City,US,21.3469,-158.0858,20,73,72.77,2.57,2021-04-24 09:02:11
4,5847411,Kahului,US,20.8947,-156.47,20,88,70.97,5.14,2021-04-24 08:59:25
5,5106841,Albany,US,42.6001,-73.9662,78,34,54.37,4.92,2021-04-24 09:02:00
6,2110227,Butaritari,KI,3.0707,172.7902,100,75,81.41,3.81,2021-04-24 09:04:10
7,4021858,Guerrero Negro,MX,27.9769,-114.0611,30,89,55.71,5.03,2021-04-24 09:04:11
8,1684803,Tabuk,PH,17.4189,121.4443,41,85,73.11,3.39,2021-04-24 09:04:11
9,2125906,Dukat,RU,62.55,155.55,55,99,-8.7,2.14,2021-04-24 09:04:11
10,3466165,Cidreira,BR,-30.1811,-50.2056,76,71,71.8,5.41,2021-04-24 09:04:11
11,2206939,Bluff,NZ,-46.6,168.3333,40,92,41.38,1.79,2021-04-24 09:04:12
12,1525376,Bestöbe,KZ,52.4994,73.0975,100,31,49.3,5.12,2021-04-24 09:04:12
13,6201424,Mataura,NZ,-46.1927,168.8643,19,92,41.38,1.79,2021-04-24 09:04:12
14,3874787,Punta Arenas,CL,-53.15,-70.9167,0,87,45.77,4.63,2021-04-24 09:04:12
15,3380290,Sinnamary,GF,5.3833,-52.95,100,88,77.7,5.43,2021-04-24 09:04:13
16,3526966,Huehuetán,MX,15.0167,-92.3667,90,100,72.77,4.12,2021-04-24 09:04:13
17,2180815,Tuatapere,NZ,-46.1333,167.6833,76,92,41.38,1.79,2021-04-24 09:04:13
18,1793385,Tangjiazhuang,CN,39.7333,118.45,16,55,58.33,3.71,2021-04-24 09:04:13
19,5855927,Hilo,US,19.7297,-155.09,75,88,69.17,3.09,2021-04-24 09:01:49
20,2094342,Kavieng,PG,-2.5744,150.7967,10,76,80.64,3.26,2021-04-24 09:04:14
21,1488903,Turukhansk,RU,65.8167,87.9833,88,96,34.16,4.89,2021-04-24 09:04:14
22,6355222,Yulara,AU,-25.2406,130.9889,18,42,61.97,2.57,2021-04-24 09:04:14
23,3369157,Cape Town,ZA,-33.9258,18.4232,0,53,72.37,4.63,2021-04-24 08:57:51
24,1015776,Bredasdorp,ZA,-34.5322,20.0403,100,68,63.77,2.06,2021-04-24 09:04:15
25,1529569,Changji,CN,44.0167,87.3167,0,42,40.37,1.0,2021-04-24 09:04:15
26,5983720,Iqaluit,CA,63.7506,-68.5145,75,86,33.17,5.66,2021-04-24 09:04:15
27,2624652,Holme,DK,56.1138,10.1725,75,43,49.37,2.06,2021-04-24 09:04:15
28,964420,Port Elizabeth,ZA,-33.918,25.5701,0,68,69.17,3.6,2021-04-24 09:04:16
29,5820705,Casper,US,42.8666,-106.3131,1,86,24.17,2.06,2021-04-24 09:04:16
30,2120048,Ust-Nera,RU,64.5667,143.2,14,85,-3.55,0.62,2021-04-24 09:04:16
31,3355672,Lüderitz,NA,-26.6481,15.1594,1,63,70.38,4.26,2021-04-24 09:04:16
32,1244926,Hambantota,LK,6.1241,81.1185,40,94,83.57,3.09,2021-04-24 09:04:17
33,2666218,Uppsala County,SE,60.0,17.75,90,56,42.17,5.66,2021-04-24 09:04:17
34,1259395,Porbandar,IN,21.6422,69.6093,100,67,83.82,6.22,2021-04-24 09:04:17
35,1485020,Znamenskoye,RU,57.1281,73.8282,100,48,46.8,2.06,2021-04-24 09:04:18
36,3833367,Ushuaia,AR,-54.8,-68.3,75,81,43.97,1.54,2021-04-24 09:04:18
37,2074865,Carnarvon,AU,-24.8667,113.6333,0,83,70.97,3.09,2021-04-24 09:04:18
38,4020109,Atuona,PF,-9.8,-139.0333,28,78,79.27,8.26,2021-04-24 09:04:18
39,3695675,La Peca,PE,-5.6111,-78.435,61,90,68.25,0.39,2021-04-24 09:04:19
40,2338660,Yaan,NG,7.3833,8.5667,94,57,87.33,4.42,2021-04-24 09:04:19
41,2630299,Hofn,IS,64.2539,-15.2082,100,75,45.57,1.7,2021-04-24 09:03:11
42,2075265,Busselton,AU,-33.65,115.3333,2,78,60.37,1.79,2021-04-24 09:03:53
43,934322,Mahébourg,MU,-20.4081,57.7,75,89,78.17,5.14,2021-04-24 09:04:19
44,5563839,Fortuna,US,40.5982,-124.1573,90,100,47.37,2.23,2021-04-24 09:04:20
45,5122534,Jamestown,US,42.097,-79.2353,1,49,49.37,4.12,2021-04-24 09:04:20
46,286245,Sur,OM,22.5667,59.5289,0,33,93.65,1.85,2021-04-24 09:04:20
47,2063036,Port Lincoln,AU,-34.7333,135.8667,2,68,58.64,2.68,2021-04-24 09:04:21
48,2381972,Adrar,MR,20.5022,-10.0711,0,10,94.03,2.18,2021-04-24 09:04:21
49,933995,Souillac,MU,-20.5167,57.5167,75,89,78.17,5.14,2021-04-24 09:01:46
50,4030556,Rikitea,PF,-23.1203,-134.9692,100,77,75.76,5.04,2021-04-24 09:04:21
51,151479,Njombe,TZ,-9.3333,34.7667,76,72,66.02,3.48,2021-04-24 09:04:21
52,3652764,Puerto Ayora,EC,-0.7393,-90.3518,14,95,76.37,1.34,2021-04-24 09:04:22
53,2071860,Esperance,AU,-33.8667,121.9,100,77,61.97,3.6,2021-04-24 09:04:22
54,3883457,Lebu,CL,-37.6167,-73.65,10,83,51.93,5.44,2021-04-24 09:04:22
55,1629965,Tanete,ID,-3.9443,119.7848,100,92,75.22,1.22,2021-04-24 09:04:22
56,6145951,Shellbrook,CA,53.2168,-106.4011,75,86,22.37,3.09,2021-04-24 09:04:23
57,1735106,George Town,MY,5.4112,100.3354,20,70,83.57,2.57,2021-04-24 09:03:45
58,2012530,Zhigansk,RU,66.7697,123.3711,100,99,32.85,3.41,2021-04-24 09:04:23
59,4032243,Vaini,TO,-21.2,-175.2,40,94,70.97,0.51,2021-04-24 09:04:23
60,3424901,Aasiaat,GL,68.7098,-52.8699,97,83,27.82,4.52,2021-04-24 09:04:24
61,5866583,Saint Paul Harbor,US,57.79,-152.4072,90,93,38.57,2.06,2021-04-24 09:04:24
62,5848280,Kapaa,US,22.0752,-159.319,40,78,72.77,7.2,2021-04-24 09:04:24
63,3430863,Mar del Plata,AR,-38.0023,-57.5575,40,88,66.36,3.6,2021-04-24 09:02:20
64,6180550,Whitehorse,CA,60.7161,-135.0538,20,59,29.57,2.06,2021-04-24 09:04:24
65,1510689,Baykit,RU,61.67,96.37,100,95,32.29,0.89,2021-04-24 09:04:25
66,3354077,Opuwo,NA,-18.0607,13.84,90,23,81.73,1.98,2021-04-24 09:04:25
67,4703811,Kyle,US,29.9984,-97.8715,1,77,61.97,4.63,2021-04-24 09:04:25
68,7671223,Kloulklubed,PW,7.0419,134.2556,75,83,81.77,3.09,2021-04-24 09:04:26
69,2070998,Geraldton,AU,-28.7667,114.6,90,88,67.37,3.6,2021-04-24 09:04:26
70,5367788,Lompoc,US,34.6391,-120.4579,25,81,49.37,1.77,2021-04-24 09:04:26
71,3985710,Cabo San Lucas,MX,22.8909,-109.9124,1,55,61.97,1.72,2021-04-24 09:01:15
72,3831208,Qaanaaq,GL,77.484,-69.3632,100,64,22.28,4.55,2021-04-24 09:04:26
73,2644605,Lerwick,GB,60.1545,-1.1494,75,87,47.57,3.09,2021-04-24 09:04:27
74,2441482,Magaria,NE,12.9983,8.9099,100,12,104.31,2.62,2021-04-24 09:04:27
75,3521476,Pijijiapan,MX,15.7011,-93.23,100,68,80.19,0.64,2021-04-24 09:04:27
76,1786060,Yuanping,CN,38.7153,112.7575,100,55,54.97,3.64,2021-04-24 09:04:18
77,2332453,Lagos,NG,6.5833,3.75,75,62,90.77,4.63,2021-04-24 08:56:58
78,2374583,Bubaque,GW,11.2833,-15.8333,2,54,78.66,2.81,2021-04-24 09:04:28
79,2240449,Luanda,AO,-8.8368,13.2343,75,74,83.57,3.6,2021-04-24 09:04:28
80,2446796,Bilma,NE,18.6853,12.9164,7,5,106.36,4.94,2021-04-24 09:01:10
81,3418910,Upernavik,GL,72.7868,-56.1549,45,80,33.19,1.21,2021-04-24 09:04:28
82,3662762,Porto Velho,BR,-8.7619,-63.9039,20,94,76.37,1.03,2021-04-24 09:04:28
83,1254163,Trivandrum,IN,8.4833,76.9167,40,70,87.17,4.12,2021-04-24 09:04:29
84,5924351,Clyde River,CA,70.4692,-68.5914,90,92,13.37,4.12,2021-04-24 09:04:29
85,935215,Saint-Philippe,RE,-21.3585,55.7679,75,78,79.97,12.35,2021-04-24 09:04:29
86,5711847,Astoria,US,46.1879,-123.8313,90,87,45.77,2.06,2021-04-24 09:04:29
87,2264557,Ponta do Sol,PT,32.6667,-17.1,75,60,67.37,3.09,2021-04-24 09:03:58
88,2620767,Harboøre,DK,56.6175,8.1807,15,56,49.37,7.2,2021-04-24 09:04:30
89,2163355,Hobart,AU,-42.8794,147.3294,40,66,50.38,2.57,2021-04-24 09:00:22
90,5916821,Cardston,CA,49.2,-113.3019,100,100,27.77,3.6,2021-04-24 09:00:22
91,2161515,Kiama,AU,-34.6833,150.8667,39,89,53.37,0.89,2021-04-24 08:59:53
92,6255012,Flinders,AU,-34.5833,150.8552,39,80,53.37,0.45,2021-04-24 09:04:30
93,2108502,Honiara,SB,-9.4333,159.95,58,82,77.7,1.33,2021-04-24 09:04:30
94,2156643,Mount Gambier,AU,-37.8333,140.7667,75,100,49.37,2.57,2021-04-24 09:04:31
95,1521762,Kurchum,KZ,48.5722,83.6542,70,36,43.23,5.04,2021-04-24 09:04:31
96,2610343,Vestmanna,FO,62.1564,-7.1664,75,87,47.57,3.09,2021-04-24 09:04:31
97,1006984,East London,ZA,-33.0153,27.9116,0,56,72.77,4.12,2021-04-24 09:04:32
98,1185095,Teknāf,BD,20.8624,92.3058,1,74,81.54,5.75,2021-04-24 09:04:32
99,777019,Vardø,NO,70.3705,31.1107,75,80,33.17,9.26,2021-04-24 09:04:32
100,1735553,Tanah Merah,MY,5.8,102.15,20,89,78.17,3.6,2021-04-24 09:04:32
101,2179825,Waitati,NZ,-45.75,170.5667,57,84,48.36,1.34,2021-04-24 09:04:33
102,3451138,Rio Grande,BR,-32.035,-52.0986,75,94,65.57,2.06,2021-04-24 09:04:33
103,2126123,Chokurdakh,RU,70.6333,147.9167,8,99,-11.6,1.7,2021-04-24 09:04:33
104,3571913,Marsh Harbour,BS,26.5412,-77.0636,100,69,73.8,6.87,2021-04-24 09:04:33
105,2629833,Husavik,IS,66.0449,-17.3389,0,54,52.97,2.57,2021-04-24 09:04:34
106,3374333,Praia,CV,14.9215,-23.5087,20,53,78.17,10.29,2021-04-24 09:04:34
107,2126710,Beringovskiy,RU,63.05,179.3167,90,98,22.57,1.7,2021-04-24 09:04:34
108,2171099,Codrington,AU,-38.2667,141.9667,100,84,51.8,2.29,2021-04-24 09:04:34
109,1726064,Batuan,PH,9.7808,124.1484,75,74,81.77,1.54,2021-04-24 09:04:35
110,2191911,Dargaville,NZ,-35.9333,173.8833,60,89,57.67,3.97,2021-04-24 09:04:35
111,127319,Khorramshahr,IR,30.4397,48.1664,0,11,106.97,5.14,2021-04-24 09:04:35
112,1490256,Talnakh,RU,69.4865,88.3972,100,99,32.58,3.58,2021-04-24 09:04:35
113,1521315,Līsakovsk,KZ,52.5369,62.4936,100,48,50.29,7.73,2021-04-24 09:04:33
114,472976,Vodnyy,RU,63.5046,53.4095,91,45,54.82,4.12,2021-04-24 09:04:36
115,1214488,Meulaboh,ID,4.1363,96.1285,100,91,75.24,3.04,2021-04-24 09:04:27
116,1513491,Yangi Marg`ilon,UZ,40.4272,71.7189,100,15,72.77,2.06,2021-04-24 09:04:36
117,3627047,Santa Teresa del Tuy,VE,10.2341,-66.6631,20,74,81.77,1.03,2021-04-24 09:04:36
118,6170031,Tuktoyaktuk,CA,69.4541,-133.0374,100,96,13.82,2.53,2021-04-24 09:03:50
119,3459435,Juquitiba,BR,-23.9317,-47.0683,40,82,71.37,1.03,2021-04-24 09:02:47
120,3868707,Valdivia,CL,-39.8142,-73.2459,90,100,42.17,1.54,2021-04-24 09:04:37
121,3466704,Castro,BR,-24.7911,-50.0119,38,62,65.73,0.83,2021-04-24 09:01:30
122,5882953,Aklavik,CA,68.2191,-135.0107,100,64,29.57,2.57,2021-04-24 09:04:37
123,2122850,Nikolayevsk-on-Amur,RU,53.1406,140.73,8,94,22.46,0.47,2021-04-24 09:04:37
124,2178753,Kirakira,SB,-10.4544,161.9205,81,78,78.71,2.08,2021-04-24 09:04:37
125,1153783,Chaiya,TH,9.3862,99.1986,20,100,80.37,3.4,2021-04-24 09:04:38
126,3693584,Pimentel,PE,-6.8367,-79.9342,40,88,63.77,4.12,2021-04-24 09:04:38
127,1651810,Airai,TL,-8.9266,125.4092,64,93,58.71,0.92,2021-04-24 09:03:44
128,1636308,Manokwari,ID,-0.8667,134.0833,100,80,79.0,2.43,2021-04-24 09:04:38
129,2618795,Klaksvík,FO,62.2266,-6.589,75,87,47.57,3.09,2021-04-24 09:04:12
130,2612301,Storvorde,DK,57.0039,10.1013,20,36,49.37,3.6,2021-04-24 09:04:39
131,5044290,Saint Anthony,US,45.0205,-93.218,90,87,36.77,5.14,2021-04-24 09:04:39
132,1496073,Orlik,RU,52.5178,99.825,100,87,28.13,0.64,2021-04-24 09:04:39
133,1805179,Jiujiang,CN,29.7333,115.9833,100,91,60.96,7.89,2021-04-24 09:04:39
134,3372707,Ribeira Grande,PT,38.5167,-28.7,75,59,60.17,3.6,2021-04-24 09:03:55
135,3424607,Tasiilaq,GL,65.6145,-37.6368,75,60,38.57,2.06,2021-04-24 09:03:11
136,2123814,Leningradskiy,RU,69.3833,178.4167,100,96,18.43,1.66,2021-04-24 09:03:33
137,4781708,Richmond,US,37.5538,-77.4603,75,54,55.36,1.54,2021-04-24 09:03:46
138,6167817,Torbay,CA,47.6666,-52.7314,75,70,44.37,7.72,2021-04-24 09:03:18
139,5972762,Hay River,CA,60.8156,-115.7999,100,85,7.97,1.03,2021-04-24 09:04:40
140,4031637,Lavrentiya,RU,65.5833,-171.0,71,97,19.69,1.49,2021-04-24 09:04:40
141,1785036,Zhangye,CN,38.9342,100.4517,98,25,54.41,3.68,2021-04-24 09:04:41
142,6453331,Kristiansund,NO,63.1115,7.732,100,45,40.37,4.63,2021-04-24 09:04:41
143,1636022,Martapura,ID,-3.4167,114.85,26,78,79.97,1.03,2021-04-24 09:04:41
144,4047434,Russell,US,32.3502,-85.1999,90,88,61.38,7.72,2021-04-24 09:04:41
145,964432,Port Alfred,ZA,-33.5906,26.891,15,57,74.14,6.37,2021-04-24 09:03:51
146,3674292,Mosquera,CO,4.7059,-74.2302,40,67,58.37,3.6,2021-04-24 09:04:42
147,2206854,Gisborne,NZ,-38.6533,178.0042,2,95,50.38,1.34,2021-04-24 09:04:42
148,5942913,Dryden,CA,49.7833,-92.7503,1,79,20.57,2.06,2021-04-24 09:00:14
149,1640902,Kawalu,ID,-7.3817,108.2082,96,93,71.91,0.84,2021-04-24 09:04:42
150,6165406,Thompson,CA,55.7435,-97.8558,75,79,9.77,1.65,2021-04-24 09:04:27
151,2092164,Lorengau,PG,-2.0226,147.2712,97,77,80.02,1.93,2021-04-24 09:04:43
152,6185377,Yellowknife,CA,62.456,-114.3525,20,78,7.38,1.54,2021-04-24 09:04:43
153,2377457,Nouadhibou,MR,20.931,-17.0347,0,60,74.57,5.66,2021-04-24 09:04:43
154,293842,Kiryat Gat,IL,31.61,34.7642,0,50,77.38,0.89,2021-04-24 09:01:00
155,2514651,Los Llanos de Aridane,ES,28.6585,-17.9182,75,64,70.97,4.63,2021-04-24 09:04:43
156,3133349,Ulsteinvik,NO,62.3432,5.8487,40,87,38.37,2.06,2021-04-24 09:04:44
157,1507390,Dikson,RU,73.5069,80.5464,100,93,20.17,11.84,2021-04-24 09:04:44
158,3456137,Nova Olímpia,BR,-14.7972,-57.2881,13,64,82.71,1.5,2021-04-24 09:01:47
159,3115824,Muros,ES,42.7762,-9.0603,100,79,65.37,2.26,2021-04-24 09:04:44
160,3899695,Ancud,CL,-41.8697,-73.8203,90,93,45.77,4.12,2021-04-24 09:04:45
161,2386042,Kabo,CF,7.6994,18.629,20,28,100.58,1.06,2021-04-24 09:04:45
162,1515029,Ulaangom,MN,49.9811,92.0667,99,34,39.2,1.29,2021-04-24 09:04:45
163,4013679,Coahuayana Viejo,MX,18.7333,-103.6833,1,46,72.77,1.32,2021-04-24 09:04:45
164,3515397,Tlanchinol,MX,20.9833,-98.65,100,30,66.45,2.16,2021-04-24 09:04:46
165,1106677,Bambous Virieux,MU,-20.3428,57.7575,75,89,79.38,5.14,2021-04-24 09:04:46
166,964712,Plettenberg Bay,ZA,-34.0527,23.3716,100,72,65.91,2.49,2021-04-24 09:04:46
167,4946620,Palmer,US,42.1584,-72.3287,20,43,56.37,3.91,2021-04-24 09:04:46
168,1819729,Hong Kong,HK,22.2855,114.1577,25,84,76.37,0.89,2021-04-24 09:00:03
169,5767918,Pierre,US,44.3683,-100.351,90,86,30.36,2.06,2021-04-24 09:01:00
170,602150,Umeå,SE,63.8284,20.2597,75,65,36.77,8.23,2021-04-24 09:04:47
171,2422465,Conakry,GN,9.538,-13.6773,0,58,87.17,5.14,2021-04-24 09:04:47
172,3416888,Grindavik,IS,63.8424,-22.4338,90,81,47.57,9.77,2021-04-24 09:04:47
173,1045114,Inhambane,MZ,-23.865,35.3833,20,47,81.77,3.39,2021-04-24 09:04:48
174,2239862,Malanje,AO,-9.5402,16.341,90,88,74.57,3.09,2021-04-24 09:04:48
175,934479,Grand Gaube,MU,-20.0064,57.6608,100,82,79.38,4.02,2021-04-24 09:04:28
176,3996893,Caborca,MX,30.5838,-111.101,3,41,57.52,1.6,2021-04-24 09:04:48
177,8079926,Labuhan,ID,-6.8844,112.2051,65,80,79.27,2.94,2021-04-24 09:04:48
178,3374210,São Filipe,CV,14.8961,-24.4956,62,71,72.37,5.11,2021-04-24 09:04:49
179,3465145,Crixás,BR,-14.5489,-49.9692,6,48,80.31,1.51,2021-04-24 09:04:49
180,1252795,Yanam,IN,16.7333,82.2167,20,55,90.77,3.09,2021-04-24 09:04:49
181,2874545,Magdeburg,DE,52.1667,11.6667,100,41,55.36,2.24,2021-04-24 09:04:49
182,2381334,Atar,MR,20.5169,-13.0499,0,21,90.77,4.12,2021-04-24 09:04:50
183,371745,Kutum,SD,14.2,24.6667,55,10,93.67,3.33,2021-04-24 09:04:50
184,2120769,Talaya,RU,61.3833,152.75,20,100,-10.26,1.31,2021-04-24 09:04:50
185,3663684,Lábrea,BR,-7.2586,-64.7981,100,80,79.72,1.05,2021-04-24 09:04:50
186,1252783,Yārāda,IN,17.65,83.2667,40,74,85.37,1.54,2021-04-24 09:04:51
187,5880054,Barrow,US,71.2906,-156.7887,1,86,16.97,2.57,2021-04-24 09:04:51
188,1254046,Tura,IN,25.5198,90.2201,100,29,80.08,1.51,2021-04-24 09:04:37
189,2021017,Kysyl-Syr,RU,63.8986,122.7617,100,98,33.31,3.54,2021-04-24 09:04:51
190,5870133,Nome,US,64.5011,-165.4064,75,86,27.77,1.69,2021-04-24 09:04:52
191,1633419,Padang,ID,-0.9492,100.3543,40,83,79.97,1.03,2021-04-24 09:04:52
192,3373652,Oistins,BB,13.0667,-59.5333,40,54,83.57,7.72,2021-04-24 09:04:52
193,909488,Lukulu,ZM,-14.3707,23.242,100,29,84.38,1.25,2021-04-24 09:04:52
194,1337612,Dhidhdhoo,MV,6.8833,73.1,50,69,83.59,1.38,2021-04-24 09:02:27
195,6089245,Norman Wells,CA,65.282,-126.8329,75,80,24.17,1.03,2021-04-24 09:04:53
196,189280,Lodwar,KE,3.1191,35.5973,99,27,95.67,6.4,2021-04-24 09:04:53
197,1275050,Burla,IN,21.5,83.8667,20,23,94.37,2.06,2021-04-24 09:04:53
198,1259890,Peravurani,IN,10.3,79.1833,98,57,87.24,4.42,2021-04-24 09:04:53
199,3356832,Henties Bay,NA,-22.116,14.2845,6,85,63.37,4.02,2021-04-24 09:04:54
200,3386931,Tamandaré,BR,-8.7597,-35.1047,18,60,84.16,3.85,2021-04-24 09:04:54
201,2538474,Rabat,MA,33.9911,-6.8401,40,64,70.97,4.12,2021-04-24 09:04:54
202,2122090,Pevek,RU,69.7008,170.3133,100,93,10.2,1.31,2021-04-24 09:04:55
203,3893656,Copiapó,CL,-27.3667,-70.3333,0,76,54.77,3.09,2021-04-24 09:00:23
204,3388847,São Félix do Xingu,BR,-6.6447,-51.995,100,94,75.07,0.58,2021-04-24 09:04:55
205,587207,Artyom,AZ,40.4723,50.333,0,48,63.77,11.32,2021-04-24 09:04:55
206,2015306,Tiksi,RU,71.6872,128.8694,100,92,25.52,4.69,2021-04-24 09:01:48
207,2686469,Örnsköldsvik,SE,63.2909,18.7153,75,56,38.57,6.17,2021-04-24 09:04:55
208,2138522,Poya,NC,-21.35,165.15,93,90,73.96,3.02,2021-04-24 09:04:56
209,3629710,Puerto Ayacucho,VE,5.6639,-67.6236,96,80,79.21,1.56,2021-04-24 09:04:56
210,5895424,Bay Roberts,CA,47.5999,-53.2648,91,74,45.37,2.24,2021-04-24 09:04:56
211,5972291,Havre-St-Pierre,CA,50.2334,-63.5986,1,80,34.97,4.63,2021-04-24 09:04:57
212,4513583,Hamilton,US,39.1834,-84.5333,90,71,50.38,3.6,2021-04-24 09:01:05
213,962367,Richards Bay,ZA,-28.783,32.0377,96,86,69.76,7.91,2021-04-24 09:04:57
214,2488835,Médéa,DZ,36.2642,2.7539,0,56,70.97,8.23,2021-04-24 09:04:57
215,6141439,Sault Ste. Marie,CA,46.5168,-84.3333,20,75,40.37,1.68,2021-04-24 09:01:20
216,2121025,Srednekolymsk,RU,67.45,153.6833,100,94,11.95,5.08,2021-04-24 09:04:57
217,2015352,Terney,RU,45.0503,136.6092,0,70,38.32,2.85,2021-04-24 09:04:58
218,656739,Ilmajoki,FI,62.7333,22.5667,75,87,35.37,6.17,2021-04-24 09:04:58
219,2208248,Kaitangata,NZ,-46.2817,169.8464,11,86,46.36,0.89,2021-04-24 09:03:48
220,2028164,Deputatsky,RU,69.3,139.9,96,91,-2.18,2.38,2021-04-24 09:04:58
221,3098201,Gryfice,PL,53.9165,15.2003,0,32,51.37,5.66,2021-04-24 09:04:59
222,2139521,Noumea,NC,-22.2763,166.4572,90,94,78.37,1.03,2021-04-24 09:00:04
223,2127202,Anadyr,RU,64.75,177.4833,40,93,31.37,8.0,2021-04-24 09:04:10
224,467120,Yershov,RU,51.3513,48.2766,86,47,60.64,5.64,2021-04-24 09:04:59
225,4705086,Lamar,US,33.6668,-95.5836,1,94,54.77,4.63,2021-04-24 09:04:59
226,2122605,Okhotsk,RU,59.3833,143.3,70,79,17.92,3.44,2021-04-24 09:05:00
227,553766,Kamenka,RU,51.3223,42.7678,91,65,49.37,0.45,2021-04-24 09:05:00
228,366426,Tandaltī,SD,13.0167,31.8667,87,10,105.22,2.27,2021-04-24 09:05:00
229,3661756,Uarini,BR,-2.99,-65.1083,75,94,78.17,3.09,2021-04-24 09:05:00
230,2079582,Alyangula,AU,-13.8483,136.4192,99,94,74.57,1.03,2021-04-24 09:05:01
231,3448903,São João da Barra,BR,-21.6403,-41.0511,0,57,79.97,2.06,2021-04-24 09:05:01
232,2706003,Höganäs,SE,56.1997,12.558,0,31,45.77,11.32,2021-04-24 09:05:01
233,750317,Bulancak,TR,40.9372,38.2291,0,77,58.37,1.54,2021-04-24 09:05:03
234,1082243,Ambilobe,MG,-13.2,49.05,44,64,85.41,2.9,2021-04-24 09:05:03
235,2017215,Sangar,RU,63.9242,127.4739,43,95,12.88,2.17,2021-04-24 09:05:03
236,6137462,Saint-Augustin,CA,51.226,-58.6502,100,95,33.58,4.61,2021-04-24 09:05:04
237,1213855,Sibolga,ID,1.7427,98.7792,100,93,75.65,1.74,2021-04-24 09:05:04
238,3697441,El Alto,PE,-4.2714,-81.2147,0,73,70.97,8.75,2021-04-24 09:05:04
239,1488414,Urengoy,RU,65.9667,78.3667,100,99,33.15,2.54,2021-04-24 09:05:04
240,1799686,Tongzi,CN,28.7829,105.0877,81,79,67.32,3.08,2021-04-24 09:05:05
241,3939761,Hualmay,PE,-11.0964,-77.6139,20,85,66.29,3.78,2021-04-24 09:05:05
242,2191562,Dunedin,NZ,-45.8742,170.5036,23,84,48.36,1.34,2021-04-24 09:05:05
243,2126199,Cherskiy,RU,68.75,161.3,100,96,22.71,2.05,2021-04-24 09:05:06
244,1267390,Kavaratti,IN,10.5669,72.642,7,68,84.67,3.36,2021-04-24 09:05:06
245,686090,Asău,RO,46.4333,26.4,89,29,55.36,2.14,2021-04-24 09:05:06
246,2093846,Kiunga,PG,-6.1219,141.2906,100,98,74.01,1.15,2021-04-24 09:05:06
247,2189343,Kaeo,NZ,-35.1,173.7833,72,92,54.37,2.49,2021-04-24 09:05:07
248,5026416,Fergus Falls,US,46.283,-96.0776,1,68,26.37,4.12,2021-04-24 09:05:07
249,2020824,Lermontovka,RU,47.1453,134.3383,70,24,43.52,5.54,2021-04-24 09:05:07
250,3517970,Pochutla,MX,15.7432,-96.4661,40,78,76.37,5.14,2021-04-24 09:05:08
251,1651103,Atambua,ID,-9.1061,124.8925,12,87,71.94,2.02,2021-04-24 09:03:41
252,1267290,Kenda,IN,23.2,86.5333,75,19,101.57,2.57,2021-04-24 09:05:08
253,1786657,Yinchuan,CN,38.4681,106.2731,100,72,47.12,4.73,2021-04-24 09:05:08
254,3471451,Arraial do Cabo,BR,-22.9661,-42.0278,0,69,76.37,6.17,2021-04-24 09:05:08
255,2022572,Khatanga,RU,71.9667,102.5,100,95,32.2,6.75,2021-04-24 09:04:28
256,3576994,Cockburn Town,TC,21.4612,-71.1419,78,77,77.76,8.68,2021-04-24 09:05:09
257,2159220,Mackay,AU,-21.15,149.2,90,94,69.17,3.6,2021-04-24 09:05:09
258,1254709,Tezu,IN,27.9167,96.1667,54,31,77.81,2.11,2021-04-24 09:05:09
259,5859699,College,US,64.8569,-147.8028,20,74,33.17,2.57,2021-04-24 09:03:41
260,2122104,Petropavlovsk-Kamchatskiy,RU,53.0452,158.6483,100,93,34.97,2.0,2021-04-24 09:05:06
261,1282256,Hithadhoo,MV,-0.6,73.0833,98,68,83.01,2.37,2021-04-24 09:05:10
262,178077,Wote,KE,-1.7808,37.6288,57,52,79.54,3.09,2021-04-24 09:05:10
263,3388760,São Geraldo do Araguaia,BR,-6.4006,-48.555,46,83,80.82,1.01,2021-04-24 09:05:10
264,3901547,Villamontes,BO,-21.25,-63.5,100,93,67.23,3.75,2021-04-24 09:05:10
265,299900,Talas,TR,38.6908,35.5538,0,27,74.57,1.03,2021-04-24 09:03:52
266,4035715,Avarua,CK,-21.2078,-159.775,75,83,76.37,6.17,2021-04-24 09:03:57
267,3421193,Paamiut,GL,61.994,-49.6678,12,78,35.55,0.69,2021-04-24 09:05:11
268,3386213,Touros,BR,-5.1989,-35.4608,40,70,83.57,3.6,2021-04-24 09:05:11
269,2063039,Port Keats,AU,-14.25,129.55,45,32,73.56,4.05,2021-04-24 09:05:11
270,1048364,Chokwé,MZ,-24.5333,32.9833,5,45,82.29,4.64,2021-04-24 09:05:12
271,600040,Daugai,LT,54.3667,24.3333,75,34,47.57,7.72,2021-04-24 09:05:12
272,964090,Prieska,ZA,-29.6641,22.7474,0,14,83.93,4.49,2021-04-24 09:05:12
273,5861897,Fairbanks,US,64.8378,-147.7164,1,64,33.17,4.12,2021-04-24 09:02:53
274,2361342,Diébougou,BF,10.9667,-3.25,14,16,106.95,1.48,2021-04-24 09:05:12
275,3382160,Cayenne,GF,4.9333,-52.3333,90,94,76.37,3.09,2021-04-24 09:05:13
276,3464724,Diamantino,BR,-14.4086,-56.4461,14,63,82.24,2.53,2021-04-24 09:05:13
277,88533,Awjilah,LY,29.1081,21.2869,8,6,101.21,5.48,2021-04-24 09:03:11
278,88834,Tūkrah,LY,32.5341,20.5791,82,57,71.98,6.99,2021-04-24 09:05:13
279,2017155,Saskylakh,RU,71.9167,114.0833,100,96,32.68,6.08,2021-04-24 09:05:13
280,1712949,Hilantagaan,PH,11.1943,123.8131,100,78,81.21,4.48,2021-04-24 09:05:14
281,2527087,Tiznit Province,MA,29.5833,-9.5,98,53,68.34,5.35,2021-04-24 09:05:14
282,5710360,Winnemucca,US,40.973,-117.7357,90,35,52.97,4.63,2021-04-24 09:01:07
283,3663516,Mâncio Lima,BR,-7.6142,-72.8958,47,91,74.84,1.34,2021-04-24 09:05:14
284,2192362,Christchurch,NZ,-43.5333,172.6333,20,93,46.36,2.06,2021-04-24 08:53:44
285,6144312,Sept-Îles,CA,50.2001,-66.3821,20,100,42.37,2.06,2021-04-24 09:00:26
286,4726521,San Patricio,US,28.017,-97.5169,90,94,74.57,1.54,2021-04-24 09:05:15
287,2514301,Mahon,ES,39.8885,4.2658,20,59,65.57,3.6,2021-04-24 09:05:15
288,2037494,Erdaojiang,CN,41.7764,126.0319,2,38,44.76,2.67,2021-04-24 09:05:15
289,2659977,Luan,CH,46.3592,6.9759,30,40,67.37,4.02,2021-04-24 09:05:15
290,1528998,Yumen,CN,40.2833,97.2,100,19,56.5,4.52,2021-04-24 09:02:05
291,3533462,Acapulco de Juárez,MX,16.8634,-99.8901,20,78,72.77,1.03,2021-04-24 09:03:43
292,2015217,Tokur,RU,53.1333,132.9,5,93,14.0,1.1,2021-04-24 09:05:16
293,3037846,Amilly,FR,47.9728,2.7719,6,34,70.38,1.79,2021-04-24 09:05:16
294,2027173,Balyaga,RU,51.1507,108.921,100,48,50.79,1.64,2021-04-24 09:05:16
295,6115187,Quesnel,CA,52.9999,-122.5029,1,68,25.97,2.06,2021-04-24 09:05:16
296,2063056,Port Augusta,AU,-32.5,137.7667,0,77,60.17,3.6,2021-04-24 09:05:17
297,1178338,Gilgit,PK,35.9221,74.3087,0,27,59.34,0.55,2021-04-24 09:02:39
298,1489656,Teya,RU,60.3778,92.6267,100,97,35.22,0.83,2021-04-24 09:05:17
299,2136825,Isangel,VU,-19.55,169.2667,93,80,77.83,4.52,2021-04-24 09:05:17
300,2641434,Northam,GB,51.0333,-4.2167,18,45,59.38,3.13,2021-04-24 09:05:18
301,5557293,Sitka,US,57.0531,-135.33,20,49,45.77,2.87,2021-04-24 09:00:23
302,4738723,Uvalde,US,29.3669,-99.767,1,66,57.36,2.06,2021-04-24 09:03:18
303,3175096,Laas,IT,46.6166,10.7002,0,27,72.77,3.6,2021-04-24 09:05:18
304,2022317,Khor,RU,47.8861,134.9464,100,23,43.63,5.96,2021-04-24 09:04:27
305,2112309,Katsuura,JP,35.1333,140.3,40,63,60.37,5.66,2021-04-24 09:05:18
306,4393739,Kirkwood,US,38.5834,-90.4068,90,87,51.37,2.06,2021-04-24 09:05:18
307,1510377,Belyy Yar,RU,53.6039,91.3903,40,39,43.97,3.0,2021-04-24 09:04:11
308,6067747,Matagami,CA,49.7502,-77.6328,90,86,27.77,6.17,2021-04-24 09:05:19
309,1648082,Boyolangu,ID,-8.1181,111.8935,31,83,75.11,1.26,2021-04-24 09:05:19
310,3423146,Ilulissat,GL,69.2167,-51.1,75,60,36.77,2.06,2021-04-24 09:05:19
311,5380437,Pacific Grove,US,36.6177,-121.9166,90,76,51.17,1.54,2021-04-24 09:02:19
312,2271968,Aljezur,PT,37.3191,-8.8033,100,60,67.84,4.81,2021-04-24 09:05:20
313,2176639,Batemans Bay,AU,-35.7167,150.1833,100,85,55.36,0.48,2021-04-24 09:05:20
314,86049,Jalu,LY,29.0331,21.5482,16,6,101.84,5.7,2021-04-24 09:05:20
315,1529376,Korla,CN,41.7597,86.1469,4,32,55.8,5.69,2021-04-24 09:05:20
316,49747,Oddur,SO,4.1213,43.8894,73,45,86.59,2.51,2021-04-24 09:05:21
317,4543342,Muskogee,US,35.5834,-95.3336,90,94,56.57,5.66,2021-04-24 09:05:21
318,3429594,Reconquista,AR,-29.15,-59.65,100,96,64.9,1.98,2021-04-24 09:05:21
319,1490796,Strezhevoy,RU,60.7333,77.5889,100,87,42.17,1.0,2021-04-24 09:05:21
320,3347019,Mossamedes,AO,-15.1961,12.1522,94,66,84.56,4.42,2021-04-24 09:05:22
321,3458498,Linhares,BR,-19.3911,-40.0722,5,58,81.48,1.44,2021-04-24 09:05:08
322,6050066,La Ronge,CA,55.1001,-105.2842,16,67,13.37,2.57,2021-04-24 09:05:22
323,141736,Bam,IR,29.106,58.357,12,7,91.06,5.02,2021-04-24 09:05:22
324,3420846,Qaqortoq,GL,60.7167,-46.0333,20,30,56.57,7.72,2021-04-24 09:05:22
325,1632694,Pangkalanbuun,ID,-2.6833,111.6167,69,82,77.05,1.55,2021-04-24 09:05:23
326,913323,Kaoma,ZM,-14.7833,24.8,7,27,84.06,2.73,2021-04-24 09:05:23
327,3421719,Narsaq,GL,60.9167,-46.05,20,30,56.57,7.72,2021-04-24 09:05:23
328,546105,Nikolskoye,RU,59.7035,30.7861,75,61,43.38,2.0,2021-04-24 09:05:23
329,5282297,Bethel,US,41.3712,-73.414,1,33,58.37,2.57,2021-04-24 09:05:24
330,2167426,Emerald,AU,-23.5333,148.1667,75,68,67.37,3.09,2021-04-24 09:05:24
331,556268,Ostrovnoy,RU,68.0531,39.5131,100,99,38.08,3.05,2021-04-24 09:05:24
332,64814,Bandarbeyla,SO,9.4942,50.8122,32,66,85.68,5.79,2021-04-24 09:05:25
333,3698359,Chicama,PE,-7.8447,-79.1469,90,100,61.97,3.6,2021-04-24 09:05:25
334,1802068,Lujiang,CN,31.2581,117.2817,90,77,60.37,7.0,2021-04-24 09:05:25
335,3438102,Fuerte Olimpo,PY,-21.0415,-57.8738,96,34,86.16,3.07,2021-04-24 09:05:25
336,110690,Faya,SA,18.3851,42.4509,40,28,74.57,3.6,2021-04-24 09:05:26
337,2361373,Diapaga,BF,12.0708,1.7889,53,11,106.27,1.37,2021-04-24 09:05:26
338,2303611,Esim,GH,4.8699,-2.2405,97,67,86.07,3.88,2021-04-24 09:05:26
339,935214,Saint-Pierre,RE,-21.3393,55.4781,75,78,79.97,12.35,2021-04-24 09:05:26
340,2032201,Bulgan,MN,48.8125,103.5347,100,99,32.7,2.99,2021-04-24 09:05:27
341,5261790,Marathon,US,44.9,-89.7668,90,87,43.97,1.54,2021-04-24 09:05:27
342,478297,Usogorsk,RU,63.4106,48.6872,67,40,55.44,4.73,2021-04-24 09:05:27
343,1259385,Port Blair,IN,11.6667,92.75,45,67,82.63,3.88,2021-04-24 09:04:18
344,2194098,Ahipara,NZ,-35.1667,173.1667,67,85,59.63,3.77,2021-04-24 09:05:28
345,2036075,Lingyuan,CN,41.24,119.4011,10,59,50.81,3.48,2021-04-24 09:05:28
346,5991056,Kenora,CA,49.8167,-94.4337,20,58,22.37,1.54,2021-04-24 09:05:28
347,2084442,Vanimo,PG,-2.6741,141.3028,96,84,78.37,1.06,2021-04-24 09:05:28
348,610298,Beyneu,KZ,45.3167,55.2,64,25,70.72,5.75,2021-04-24 09:05:29
349,522945,Neftegorsk,RU,52.802,51.166,83,75,48.97,1.94,2021-04-24 09:05:29
350,4031574,Provideniya,RU,64.3833,-173.3,100,87,31.73,0.28,2021-04-24 09:05:29
351,1722803,Buluang,PH,13.3068,123.3425,6,88,76.6,0.7,2021-04-24 09:05:29
352,2036933,Helong,CN,42.5397,128.9972,0,83,40.77,1.57,2021-04-24 09:05:30
353,211647,Lodja,CD,-3.4833,23.4333,85,68,79.3,1.75,2021-04-24 09:05:30
354,1502073,Krasnosel'kup,RU,65.7,82.4667,100,99,32.5,3.82,2021-04-24 09:05:30
355,3421765,Nanortalik,GL,60.1432,-45.2371,94,74,39.7,0.97,2021-04-24 09:05:30
356,763066,Orneta,PL,54.1148,20.1333,63,51,43.48,7.37,2021-04-24 09:05:31
357,933333,Mogapi,BW,-22.323,27.8349,0,16,83.71,1.4,2021-04-24 09:05:31
358,3013456,Héricourt,FR,47.5731,6.7614,0,24,69.17,2.06,2021-04-24 09:05:31
359,5742974,North Bend,US,43.4065,-124.2243,90,100,46.36,3.09,2021-04-24 09:04:47
360,2112802,Hasaki,JP,35.7333,140.8333,20,93,51.17,1.03,2021-04-24 09:05:32
361,1623197,Tual,ID,-5.6667,132.75,94,68,84.58,8.15,2021-04-24 09:05:32
362,1235846,Matara,LK,5.9485,80.5353,64,78,81.12,3.82,2021-04-24 09:05:32
363,1538641,Kedrovyy,RU,56.1667,91.8167,0,65,36.77,2.0,2021-04-24 09:05:32
364,2012956,Yerbogachën,RU,61.2767,108.0108,100,91,30.4,0.74,2021-04-24 09:05:33
365,1280037,Shache,CN,38.4167,77.2406,87,10,70.03,2.27,2021-04-24 09:05:33
366,1519030,Chu,KZ,43.5983,73.7614,100,53,52.38,5.36,2021-04-24 09:05:33
367,4337291,Pineville,US,31.3224,-92.4343,1,88,63.77,3.09,2021-04-24 09:03:59
368,780687,Berlevåg,NO,70.8578,29.0864,100,69,34.29,5.36,2021-04-24 09:05:33
369,1224061,Wattegama,LK,6.7989,81.4808,40,94,83.57,3.09,2021-04-24 09:05:34
370,2013399,Vikhorevka,RU,56.1201,101.1636,75,93,31.37,2.0,2021-04-24 09:05:34
371,2453347,Mopti,ML,14.6667,-4.0,0,11,106.97,4.12,2021-04-24 09:05:34
372,5969025,Haines Junction,CA,60.7522,-137.5108,12,93,20.57,0.51,2021-04-24 09:05:34
373,638936,Rovaniemi,FI,66.5,25.7167,90,80,33.17,5.66,2021-04-24 09:01:53
374,609924,Emba,KZ,48.8264,58.1442,100,66,51.37,7.92,2021-04-24 09:05:35
375,5955902,Fort Nelson,CA,58.8053,-122.7002,40,79,18.77,0.57,2021-04-24 09:05:35
376,3443061,Chui,UY,-33.6971,-53.4616,100,84,67.12,3.92,2021-04-24 09:05:35
377,5404198,Twentynine Palms,US,34.1356,-116.0542,1,44,62.37,2.57,2021-04-24 09:05:36
378,1255816,Sompeta,IN,18.9333,84.6,2,71,83.21,4.12,2021-04-24 09:05:36
379,228418,Nakasongola,UG,1.3089,32.4564,81,57,78.51,1.64,2021-04-24 09:05:36
380,1280957,Jiayuguan City,CN,39.8167,98.3,100,27,54.36,2.44,2021-04-24 09:05:36
381,553310,Kamyshevatskaya,RU,46.4132,37.9563,1,62,51.44,8.12,2021-04-24 09:05:37
382,3385658,Uruçuí,BR,-7.2294,-44.5561,83,69,83.62,2.03,2021-04-24 09:05:37
383,2240449,Luanda,AO,-8.8368,13.2343,75,74,81.77,3.6,2021-04-24 08:57:49
384,209598,Manono,CD,-7.3,27.4167,100,52,86.05,0.94,2021-04-24 09:05:37
385,1784554,Zhicheng,CN,30.2956,111.5047,100,97,53.37,3.6,2021-04-24 09:05:37
386,57000,Hobyo,SO,5.3505,48.5268,97,64,85.82,4.89,2021-04-24 09:05:12
387,2173911,Broken Hill,AU,-31.95,141.4333,0,51,58.37,4.12,2021-04-24 09:05:38
388,1181065,Chitral,PK,35.8462,71.7858,65,39,63.59,0.95,2021-04-24 09:05:38
389,3131500,Visnes,NO,59.3556,5.2242,20,49,45.77,9.77,2021-04-24 09:05:38
390,741609,Merzifon,TR,40.8733,35.4631,75,39,63.77,11.83,2021-04-24 09:05:38
391,5962442,Goderich,CA,43.7501,-81.7165,15,65,43.97,1.54,2021-04-24 09:05:39
392,2645525,Kincardine,GB,56.0667,-3.7167,0,66,52.38,6.17,2021-04-24 09:05:39
393,6096551,Pangnirtung,CA,66.1451,-65.7125,42,78,34.54,0.34,2021-04-24 09:05:39
394,3131824,Vigrestad,NO,58.5667,5.7,0,42,45.77,8.75,2021-04-24 09:05:40
395,494877,Shentala,RU,54.45,51.4833,100,92,42.8,2.29,2021-04-24 09:05:40
396,2121385,Severo-Kuril'sk,RU,50.6789,156.125,100,94,35.13,2.08,2021-04-24 09:03:43
397,5729080,Grants Pass,US,42.439,-123.3284,90,66,48.36,2.57,2021-04-24 09:01:14
398,2246901,Oussouye,SN,12.485,-16.5469,0,61,87.17,3.09,2021-04-24 09:05:40
399,5101405,Morris,US,40.8334,-74.5329,1,41,57.36,1.54,2021-04-24 09:01:25
400,3348078,Kuito,AO,-12.3833,16.9333,0,38,76.37,4.63,2021-04-24 09:05:40
401,7521944,Sangre Grande,TT,10.5835,-61.1177,20,78,83.37,4.63,2021-04-24 09:05:41
402,1643837,Gorontalo,ID,0.5412,123.0595,56,92,75.31,1.03,2021-04-24 09:05:41
403,2023584,Imeni Poliny Osipenko,RU,52.4201,136.4853,99,65,30.56,3.31,2021-04-24 09:04:09
404,1709108,Katubao,PH,5.8892,124.8294,55,77,81.16,3.48,2021-04-24 09:05:41
405,2357163,Nouna,BF,12.7333,-3.8667,50,11,105.08,2.77,2021-04-24 09:05:42
406,2318374,Gboko,NG,7.3179,8.9951,100,57,86.52,5.22,2021-04-24 09:05:37
407,6111862,Port Hardy,CA,50.6996,-127.4199,90,100,43.97,1.03,2021-04-24 09:03:19
408,2729907,Longyearbyen,SJ,78.2186,15.6401,75,63,25.97,3.6,2021-04-24 09:05:42
409,3351663,Benguela,AO,-12.5763,13.4055,28,66,86.79,5.81,2021-04-24 09:05:42
410,1791779,Wanning,CN,18.8003,110.3967,60,87,78.89,4.42,2021-04-24 09:05:42
411,3932145,Pisco,PE,-13.7,-76.2167,0,88,65.57,0.87,2021-04-24 09:05:43
412,2188444,Leeston,NZ,-43.7667,172.3,20,93,46.36,2.06,2021-04-24 09:05:43
413,1735634,Kuching,MY,1.55,110.3333,40,88,76.37,2.06,2021-04-24 09:05:43
414,6316343,Alta Floresta,BR,-9.8756,-56.0861,40,79,78.17,1.18,2021-04-24 09:05:43
415,3350246,Catumbela,AO,-12.4314,13.5472,44,69,85.48,5.06,2021-04-24 09:05:44
416,3355595,Mariental,NA,-24.6333,17.9667,0,13,82.58,2.71,2021-04-24 09:05:44
417,3832899,Viedma,AR,-40.8135,-62.9967,64,60,59.07,8.78,2021-04-24 09:05:44
418,1264540,Madikeri,IN,12.4167,75.7333,17,88,69.12,1.61,2021-04-24 09:05:45
419,2015913,Suntar,RU,62.1444,117.6319,12,92,31.57,2.64,2021-04-24 09:05:45
420,6111696,Port-Cartier,CA,50.0334,-66.8654,20,100,42.37,2.06,2021-04-24 09:05:45
421,2138555,Poum,NC,-20.2333,164.0167,92,79,77.94,4.37,2021-04-24 09:05:45
422,2109528,Buala,SB,-8.145,159.5921,70,81,79.54,0.7,2021-04-24 09:05:16
423,158321,Karema,TZ,-6.8205,30.4389,46,64,79.56,1.72,2021-04-24 09:05:46
424,212730,Kisangani,CD,0.5167,25.2,90,88,72.77,4.12,2021-04-24 09:05:46
425,561698,Gayny,RU,60.3071,54.3241,100,82,43.97,3.43,2021-04-24 09:05:46
426,1649150,Bengkulu,ID,-3.8004,102.2655,100,80,78.48,2.21,2021-04-24 09:05:46
427,504269,Pudozh,RU,61.8099,36.5345,100,95,38.44,2.47,2021-04-24 09:05:47
428,3372783,Ponta Delgada,PT,37.7333,-25.6667,75,77,58.37,7.2,2021-04-24 09:04:15
429,4845585,Westport,US,41.1415,-73.3579,1,58,58.37,3.09,2021-04-24 09:05:47
430,1855476,Nichinan,JP,31.6,131.3667,75,63,65.57,4.63,2021-04-24 09:05:47
431,6094407,Oromocto,CA,45.8351,-66.4792,1,49,50.38,4.63,2021-04-24 09:02:32
432,1850523,Tateyama,JP,34.9833,139.8667,40,63,61.38,5.66,2021-04-24 09:05:48
433,4034551,Faanui,PF,-16.4833,-151.75,100,74,79.5,3.49,2021-04-24 09:05:48
434,1634614,Nabire,ID,-3.3667,135.4833,100,90,75.97,0.98,2021-04-24 09:05:40
435,1254054,Tuni,IN,17.35,82.55,56,76,83.5,4.15,2021-04-24 09:05:48
436,2097418,Finschhafen,PG,-6.6024,147.8681,56,82,79.02,1.87,2021-04-24 09:05:48
437,342884,Bahir Dar,ET,11.5936,37.3908,78,55,71.67,1.67,2021-04-24 09:05:49
438,2018553,Ol'ga,RU,43.7444,135.2892,35,50,40.23,1.95,2021-04-24 09:05:49
439,3440777,Rocha,UY,-34.4833,-54.3333,100,94,61.57,2.72,2021-04-24 09:05:26
440,4500920,Brigantine,US,39.4101,-74.3646,1,44,61.38,3.09,2021-04-24 09:05:49
441,361058,Alexandria,EG,31.2156,29.9553,0,53,72.77,5.66,2021-04-24 09:00:53
442,2068655,Katherine,AU,-14.4667,132.2667,96,59,61.97,2.06,2021-04-24 09:04:32
443,1622318,Waingapu,ID,-9.6567,120.2641,44,83,77.23,2.85,2021-04-24 09:05:50
444,2028462,Ulaanbaatar,MN,47.9077,106.8832,40,32,51.17,9.0,2021-04-24 09:05:50
445,2181625,Te Anau,NZ,-45.4167,167.7167,66,87,43.93,2.66,2021-04-24 09:01:40
446,1496511,Novy Urengoy,RU,66.0833,76.6333,100,99,32.95,2.65,2021-04-24 09:05:31
447,365742,Torit,SS,4.4133,32.5678,99,45,87.78,1.32,2021-04-24 09:05:50
448,3404558,Cabedelo,BR,-6.9811,-34.8339,75,94,78.17,1.54,2021-04-24 09:05:51
449,2094144,Kerema,PG,-7.9631,145.7785,99,86,79.0,1.41,2021-04-24 09:05:51
450,6324729,Halifax,CA,44.6453,-63.5724,7,53,53.37,7.72,2021-04-24 09:05:12
451,1816751,Beidao,CN,34.5686,105.8933,100,49,37.36,1.34,2021-04-24 09:05:51
452,1486321,Yar-Sale,RU,66.8333,70.8333,99,93,33.12,2.6,2021-04-24 09:05:51
453,2654970,Brae,GB,60.3964,-1.353,75,87,47.57,3.09,2021-04-24 09:05:21
454,3450083,Santa Maria,BR,-29.6842,-53.8069,75,94,61.97,2.06,2021-04-24 09:05:52
455,2108857,Gizo Government Station,SB,-8.103,156.8419,38,76,81.77,2.69,2021-04-24 09:05:52
456,3527795,Escárcega,MX,18.6089,-90.7454,100,75,76.3,3.47,2021-04-24 09:05:52
457,3893726,Constitución,CL,-35.3333,-72.4167,0,73,56.48,2.45,2021-04-24 09:05:53
458,339448,Dembī Dolo,ET,8.5333,34.8,53,44,76.68,2.37,2021-04-24 09:05:53
459,2142316,Yeppoon,AU,-23.1333,150.7333,90,73,69.17,1.03,2021-04-24 09:05:53
460,380348,Abū Zabad,SD,12.35,29.25,91,13,103.19,5.6,2021-04-24 09:05:53
461,118704,Rāvar,IR,31.2656,56.8055,98,10,86.94,4.96,2021-04-24 09:05:54
462,6690296,Saint-Joseph,RE,-21.3667,55.6167,75,78,79.97,12.35,2021-04-24 09:05:54
463,1495626,Pangody,RU,65.85,74.4859,100,98,32.65,3.48,2021-04-24 09:05:54
464,3664243,Feijó,BR,-8.1642,-70.3536,82,95,74.7,0.98,2021-04-24 09:05:54
465,1242110,Kalmunai,LK,7.4167,81.8167,62,73,81.9,4.25,2021-04-24 09:05:55
466,2036876,Honggang,CN,46.4667,124.8667,0,20,47.93,1.13,2021-04-24 09:05:55
467,5546220,Saint George,US,37.1041,-113.5841,1,26,58.37,3.6,2021-04-24 09:05:55
468,2017646,Priargunsk,RU,50.3691,119.1012,37,23,46.26,2.26,2021-04-24 09:05:56
469,2027296,Aykhal,RU,66.0,111.5,93,92,23.36,4.29,2021-04-24 09:05:56
470,1493162,Salym,RU,60.0625,71.4789,100,59,49.46,2.06,2021-04-24 09:05:56
471,921786,Mitsamiouli,KM,-11.3847,43.2844,94,74,81.63,4.92,2021-04-24 09:03:48
472,3984997,San Quintín,MX,30.4833,-115.95,29,21,43.38,0.89,2021-04-24 09:05:56
473,4328010,Houma,US,29.5958,-90.7195,40,94,74.37,3.6,2021-04-24 09:05:57
474,5919850,Chapais,CA,49.7834,-74.8492,1,51,33.17,5.66,2021-04-24 09:05:57
475,2620279,Hirtshals,DK,57.5881,9.9592,20,36,49.37,3.6,2021-04-24 09:05:57
476,5404024,Turlock,US,37.4947,-120.8466,90,66,52.38,3.6,2021-04-24 09:05:57
477,2015852,Svetlaya,RU,46.5389,138.3297,80,93,33.57,0.86,2021-04-24 09:05:58
478,3691582,Talara,PE,-4.5772,-81.2719,0,73,70.97,8.75,2021-04-24 09:05:58
479,702116,Malyn,UA,50.7723,29.2383,79,31,47.57,5.0,2021-04-24 09:05:58
480,1798760,Pingliang,CN,35.5392,106.6861,100,50,36.37,1.34,2021-04-24 09:03:36
481,3407882,Altamira,BR,-3.2033,-52.2064,75,100,78.17,3.09,2021-04-24 09:05:59
482,3460963,Itaberaí,BR,-16.0203,-49.8103,5,53,75.27,1.46,2021-04-24 09:05:59
483,7117100,Vila,PT,42.0304,-8.1588,98,59,68.38,1.34,2021-04-24 09:05:59
484,2294915,Takoradze,GH,4.8845,-1.7554,100,64,87.35,5.22,2021-04-24 09:05:59
485,257827,Mantamádos,GR,39.3117,26.3339,20,77,63.77,1.54,2021-04-24 09:06:00
486,2129376,Kushiro,JP,42.975,144.3747,100,81,45.43,1.02,2021-04-24 09:06:00
487,3516171,Barra de Tecoanapa,MX,16.5167,-98.75,96,60,76.32,1.38,2021-04-24 09:06:00
488,3372472,Vila Franca do Campo,PT,37.7167,-25.4333,75,77,58.37,7.2,2021-04-24 09:06:01
489,5919815,Channel-Port aux Basques,CA,47.5702,-59.1367,100,94,35.78,7.81,2021-04-24 09:06:01
490,1507116,Dudinka,RU,69.4058,86.1778,100,99,32.59,5.52,2021-04-24 09:06:01
491,5188075,East Stroudsburg,US,40.9995,-75.1813,65,35,55.36,1.85,2021-04-24 09:06:01
492,1735076,Butterworth,MY,5.3991,100.3638,20,70,83.57,2.57,2021-04-24 09:06:02
493,3437107,San Cosme y Damián,PY,-27.3167,-56.35,90,94,69.17,3.6,2021-04-24 09:06:02
494,2738381,Lata,PT,40.1629,-8.3327,100,62,67.37,3.13,2021-04-24 09:06:02
495,3451051,Rio Verde de Mato Grosso,BR,-18.9181,-54.8442,11,31,83.19,3.17,2021-04-24 09:06:02
496,5554428,Ketchikan,US,55.3422,-131.6461,1,86,33.17,2.03,2021-04-24 09:03:39
497,506232,Porosozero,RU,62.7191,32.727,100,57,43.52,2.91,2021-04-24 09:06:03
498,1106643,Quatre Cocos,MU,-20.2078,57.7625,75,89,79.38,5.14,2021-04-24 09:06:03
499,1797929,Qingdao,CN,36.0986,120.3719,75,67,56.57,4.0,2021-04-24 09:06:03
500,3645213,Coro,VE,11.4045,-69.6734,18,71,81.05,6.95,2021-04-24 09:06:03
501,6111867,Port Hawkesbury,CA,45.6169,-61.3485,1,53,51.37,7.2,2021-04-24 09:06:04
502,924102,Rumphi,MW,-11.0186,33.8575,66,61,76.53,2.61,2021-04-24 09:06:04
503,1128239,Rūdbār,AF,30.15,62.6,0,4,93.09,4.45,2021-04-24 09:06:04
504,2426370,Umm Hājar,TD,13.2954,19.6966,100,11,104.85,2.2,2021-04-24 09:06:04
505,2016216,Sosnovo-Ozerskoye,RU,52.5249,111.5418,100,16,42.91,3.61,2021-04-24 09:06:05
506,4018904,Álamos,MX,27.0167,-108.9333,0,28,60.84,1.89,2021-04-24 09:06:05
507,1495586,Parabel',RU,58.6978,81.4825,95,89,36.63,1.42,2021-04-24 09:06:05
508,2179103,Whitianga,NZ,-36.8333,175.7,20,94,57.36,0.45,2021-04-24 09:06:06
509,286621,Salalah,OM,17.0151,54.0924,0,64,84.42,4.41,2021-04-24 09:06:06
510,2144528,Warrnambool,AU,-38.3833,142.4833,100,94,51.37,2.98,2021-04-24 09:06:06
511,1638775,Payo,ID,-3.7508,103.6372,97,86,75.72,1.28,2021-04-24 09:06:06
512,1263997,Mahabalipuram,IN,12.6264,80.1722,20,70,85.37,4.63,2021-04-24 09:06:07
513,98182,Baghdad,IQ,33.3406,44.4009,0,10,99.77,5.66,2021-04-24 09:05:12
514,6148373,Sioux Lookout,CA,50.1001,-91.917,75,93,20.57,2.83,2021-04-24 09:06:07
515,3414079,Olafsvik,IS,64.8945,-23.7142,100,90,44.06,6.89,2021-04-24 09:06:07
516,1058381,Morondava,MG,-20.2833,44.2833,0,60,83.34,4.7,2021-04-24 09:06:07
517,3870243,Taltal,CL,-25.4,-70.4833,0,74,61.97,0.65,2021-04-24 09:01:18
518,229059,Moyo,UG,3.6609,31.7247,100,34,89.62,1.29,2021-04-24 09:06:08
519,287832,Ibrā’,OM,22.6906,58.5334,9,9,99.5,5.83,2021-04-24 09:06:08
520,3354178,Ongandjera,NA,-17.8833,15.0667,6,18,84.61,3.84,2021-04-24 09:06:08
521,2219235,Ubari,LY,26.5921,12.7805,0,12,93.9,4.04,2021-04-24 09:06:09
522,2172153,Casino,AU,-28.8667,153.05,100,100,56.37,1.04,2021-04-24 09:06:09
523,1842966,Gijang,KR,35.2442,129.2139,0,59,60.17,3.6,2021-04-24 09:06:09
524,757357,Szczytno,PL,53.5626,20.9875,40,39,45.77,5.14,2021-04-24 09:06:10
525,1174451,Keti Bandar,PK,24.1447,67.4497,0,59,85.69,7.22,2021-04-24 09:06:10
526,3361934,Saldanha,ZA,-33.0117,17.9442,92,41,78.17,3.09,2021-04-24 09:06:10
527,1648186,Bontang,ID,0.1333,117.5,39,79,80.11,3.83,2021-04-24 09:06:10
528,1847947,Shingū,JP,33.7333,135.9833,5,86,52.97,1.85,2021-04-24 09:06:11
529,3372964,Lagoa,PT,39.05,-27.9833,10,78,57.7,12.58,2021-04-24 09:06:11
530,4034496,Fare,PF,-16.7,-151.0167,100,74,78.93,2.99,2021-04-24 09:06:11
531,4499379,Wilmington,US,34.2257,-77.9447,40,82,62.37,1.54,2021-04-24 09:05:41
532,488618,Starosubkhangulovo,RU,53.1031,57.4423,100,97,39.25,2.42,2021-04-24 09:06:11
533,3394023,Natal,BR,-5.795,-35.2094,40,70,85.37,3.6,2021-04-24 09:03:59
534,2186280,Nelson,NZ,-41.2833,173.2833,6,75,53.37,0.89,2021-04-24 09:06:12
535,5012495,Traverse City,US,44.7631,-85.6206,75,66,47.57,2.57,2021-04-24 09:04:38
536,2304548,Anloga,GH,5.7947,0.8973,40,70,88.97,5.66,2021-04-24 09:03:58
537,5905393,Bonavista,CA,48.6499,-53.1147,85,81,41.38,4.12,2021-04-24 09:06:12
538,3674676,Mitú,CO,1.1983,-70.1733,93,89,76.3,0.82,2021-04-24 09:06:12
539,2016910,Severobaykal'sk,RU,55.65,109.3167,100,70,34.07,1.22,2021-04-24 09:06:13
540,70979,Sayyan,YE,15.1718,44.3244,100,24,70.56,2.11,2021-04-24 09:05:28
541,3105522,Bereda,ES,43.2686,-7.5406,100,57,71.37,4.02,2021-04-24 09:06:13
542,255030,Plátanos,GR,37.6667,21.6167,75,82,63.77,4.12,2021-04-24 09:06:13
543,1855612,Nara,JP,34.6851,135.8049,65,80,63.37,1.12,2021-04-24 09:01:19
544,527012,Mikhaylovka,RU,50.06,43.2379,98,70,51.37,4.47,2021-04-24 09:06:14
545,1485721,Yurgamysh,RU,55.3714,64.4656,100,36,49.84,7.22,2021-04-24 09:06:14
546,1529660,Aksu,CN,41.1231,80.2644,84,22,62.2,2.11,2021-04-24 09:06:14
547,695826,Rakiv Lis,UA,51.6217,24.9243,99,36,47.01,6.26,2021-04-24 09:06:14
548,3653967,Muisne,EC,0.6,-80.0333,75,94,76.37,3.09,2021-04-24 09:06:15
549,2123628,Magadan,RU,59.5667,150.8,81,71,18.14,5.29,2021-04-24 09:06:15
550,2012349,Krasnyy Chikoy,RU,50.3643,108.7512,100,37,49.42,2.55,2021-04-24 09:06:15
551,3445026,Vila Velha,BR,-20.3297,-40.2925,20,65,79.97,2.06,2021-04-24 09:06:15
552,2389804,Baoro,CF,5.6667,15.9667,77,41,89.38,3.48,2021-04-24 09:06:16
553,4004293,Ixtapa,MX,20.7,-105.2,20,88,71.37,1.54,2021-04-24 09:02:07
554,1519691,Sarkand,KZ,45.41,79.9186,4,49,36.34,3.32,2021-04-24 09:06:16
555,3984078,Santa María del Oro,MX,25.9333,-105.3667,6,24,48.4,1.34,2021-04-24 09:06:16
556,2281120,Tabou,CI,4.423,-7.3528,85,70,85.55,4.99,2021-04-24 09:06:17
557,2063042,Port Hedland,AU,-20.3167,118.5667,0,73,72.77,2.06,2021-04-24 09:05:05
558,3664980,Boa Vista,BR,2.8197,-60.6733,75,69,81.77,6.17,2021-04-24 09:06:17
559,4885186,Blue Island,US,41.6573,-87.6801,90,62,51.37,2.57,2021-04-24 09:06:17
560,4033557,Tautira,PF,-17.7333,-149.15,75,78,76.37,1.54,2021-04-24 09:02:44
561,3837056,San Luis,AR,-33.295,-66.3356,0,70,59.95,3.4,2021-04-24 09:04:54
562,3359638,Walvis Bay,NA,-22.9575,14.5053,0,47,76.37,3.6,2021-04-24 09:06:17
563,470905,Vuktyl,RU,63.8567,57.3094,95,49,54.03,3.16,2021-04-24 09:03:34
564,1787858,Shangrao,CN,28.4532,117.9686,100,90,67.05,4.44,2021-04-24 09:06:18
565,1687894,Santa Rosa,PH,14.3122,121.1114,0,75,83.37,1.34,2021-04-24 09:06:18
566,1633034,Palu,ID,-0.8917,119.8707,71,95,76.03,0.62,2021-04-24 09:06:18
567,1274714,Chāndpur,IN,29.15,78.2667,0,10,87.91,4.45,2021-04-24 09:06:19
568,4956335,Yarmouth,US,41.7057,-70.2286,1,33,60.17,3.09,2021-04-24 09:04:54
569,3452324,Presidente Prudente,BR,-22.1256,-51.3889,0,56,69.17,3.6,2021-04-24 09:04:04
570,1067565,Beloha,MG,-25.1667,45.05,0,32,89.13,5.9,2021-04-24 09:06:19
571,2433055,Dourbali,TD,11.8091,15.8632,100,12,106.86,4.03,2021-04-24 09:06:19
572,1491267,Sos'va,RU,59.1766,61.8558,100,79,44.38,3.04,2021-04-24 09:06:19
573,1337610,Thinadhoo,MV,0.5333,72.9333,22,68,82.69,3.03,2021-04-24 09:06:20
574,1633070,Palembang,ID,-2.9167,104.7458,20,66,85.37,2.13,2021-04-24 09:06:20
575,2012938,Yerofey Pavlovich,RU,53.9667,121.9667,0,66,32.85,1.72,2021-04-24 09:06:20
576,3374083,Bathsheba,BB,13.2167,-59.5167,40,54,83.57,7.72,2021-04-24 09:06:20
577,3430708,Mercedes,AR,-34.6515,-59.4307,33,85,66.36,1.79,2021-04-24 09:06:21
578,2649715,Falmouth,GB,50.1544,-5.0711,0,67,60.17,15.95,2021-04-24 09:06:21
